[
  {
    "id": "1",
    "name": "SF-Marin Food Bank",
    "category": "food_bank",
    "address": "900 Pennsylvania Ave, San Francisco, CA 94107",
    "latitude": 37.7599,
    "longitude": -122.3988,
    "hours": "Mon-Fri 9:00 AM - 4:00 PM",
    "description": "Provides free groceries to individuals and families in need. No ID or income verification required."
  },
  {
    "id": "2",
    "name": "St. Anthony's Dining Room",
    "category": "food_bank",
    "address": "150 Golden Gate Ave, San Francisco, CA 94102",
    "latitude": 37.7818,
    "longitude": -122.4145,
    "hours": "Daily 10:00 AM - 1:00 PM",
    "description": "Free daily meals served to anyone in need. No questions asked."
  },
  {
    "id": "3",
    "name": "Glide Memorial Church",
    "category": "food_bank",
    "address": "330 Ellis St, San Francisco, CA 94102",
    "latitude": 37.7850,
    "longitude": -122.4124,
    "hours": "Daily 8:00 AM - 9:00 AM, 12:00 PM - 1:00 PM, 4:30 PM - 5:30 PM",
    "description": "Three free meals daily, plus social services and support programs."
  },
  {
    "id": "4",
    "name": "Mission Neighborhood Resource Center",
    "category": "shelter",
    "address": "165 Capp St, San Francisco, CA 94110",
    "latitude": 37.7617,
    "longitude": -122.4188,
    "hours": "24/7",
    "description": "Navigation center providing shelter, meals, and services to help people transition into housing."
  },
  {
    "id": "5",
    "name": "MSC South Shelter",
    "category": "shelter",
    "address": "525 5th St, San Francisco, CA 94107",
    "latitude": 37.7766,
    "longitude": -122.4031,
    "hours": "24/7",
    "description": "Emergency shelter with case management, meals, and housing support services."
  },
  {
    "id": "6",
    "name": "Public Fountain - UN Plaza",
    "category": "water",
    "address": "United Nations Plaza, San Francisco, CA 94102",
    "latitude": 37.7805,
    "longitude": -122.4134,
    "hours": "24/7",
    "description": "Public water fountain accessible at all times."
  },
  {
    "id": "7",
    "name": "Public Fountain - Civic Center Plaza",
    "category": "water",
    "address": "Civic Center Plaza, San Francisco, CA 94102",
    "latitude": 37.7799,
    "longitude": -122.4187,
    "hours": "24/7",
    "description": "Free drinking water fountain in the plaza."
  },
  {
    "id": "8",
    "name": "Public Fountain - Dolores Park",
    "category": "water",
    "address": "Dolores Park, San Francisco, CA 94114",
    "latitude": 37.7596,
    "longitude": -122.4269,
    "hours": "6:00 AM - 10:00 PM",
    "description": "Multiple water fountains located throughout the park."
  },
  {
    "id": "9",
    "name": "Pit Stop - 16th St BART",
    "category": "restroom",
    "address": "Near 16th St BART Station, Mission St, San Francisco, CA 94103",
    "latitude": 37.7652,
    "longitude": -122.4197,
    "hours": "Daily 8:00 AM - 8:00 PM",
    "description": "Clean, staffed public restroom facility. Part of SF Pit Stop program."
  },
  {
    "id": "10",
    "name": "Pit Stop - UN Plaza",
    "category": "restroom",
    "address": "United Nations Plaza, San Francisco, CA 94102",
    "latitude": 37.7803,
    "longitude": -122.4136,
    "hours": "Daily 8:00 AM - 8:00 PM",
    "description": "Staffed public toilet facility with handwashing station."
  },
  {
    "id": "11",
    "name": "Public Restroom - Golden Gate Park",
    "category": "restroom",
    "address": "Golden Gate Park, San Francisco, CA 94122",
    "latitude": 37.7694,
    "longitude": -122.4862,
    "hours": "Dawn to Dusk",
    "description": "Public restroom facilities available throughout the park."
  },
  {
    "id": "12",
    "name": "Fixit Clinic - Bayview",
    "category": "repair_cafe",
    "address": "Bayview Neighborhood, San Francisco, CA 94124",
    "latitude": 37.7293,
    "longitude": -122.3856,
    "hours": "2nd Saturday of month, 1:00 PM - 4:00 PM",
    "description": "Free repair help for electronics, clothing, bikes, and household items. Bring your broken items!"
  },
  {
    "id": "13",
    "name": "Repair Cafe SF - Mission",
    "category": "repair_cafe",
    "address": "Mission District, San Francisco, CA 94110",
    "latitude": 37.7599,
    "longitude": -122.4148,
    "hours": "Monthly events - check website",
    "description": "Community repair event where volunteers help fix items for free. Save money and reduce waste!"
  },
  {
    "id": "14",
    "name": "Hamilton Family Center",
    "category": "shelter",
    "address": "260 Golden Gate Ave, San Francisco, CA 94102",
    "latitude": 37.7821,
    "longitude": -122.4159,
    "hours": "24/7",
    "description": "Family shelter providing housing and support services for families with children."
  },
  {
    "id": "15",
    "name": "Food Bank Distribution - Bayview",
    "category": "food_bank",
    "address": "Bayview YMCA, 1601 Lane St, San Francisco, CA 94124",
    "latitude": 37.7315,
    "longitude": -122.3889,
    "hours": "Tuesdays 10:00 AM - 12:00 PM",
    "description": "Weekly food distribution. Bring your own bags if possible."
  },
  {
    "id": "16",
    "name": "Lava Mae - Mobile Hygiene",
    "category": "hygiene",
    "address": "Mission District (mobile service), San Francisco, CA 94110",
    "latitude": 37.7599,
    "longitude": -122.4148,
    "hours": "Check website for schedule",
    "description": "Mobile showers and hygiene services. Free toiletries provided. Check schedule for locations."
  },
  {
    "id": "17",
    "name": "St. Anthony's Hygiene Center",
    "category": "hygiene",
    "address": "150 Golden Gate Ave, San Francisco, CA 94102",
    "latitude": 37.7818,
    "longitude": -122.4145,
    "hours": "Mon-Fri 8:00 AM - 3:00 PM",
    "description": "Showers, restrooms, and basic hygiene supplies available. No appointment needed."
  },
  {
    "id": "18",
    "name": "Glide Hygiene Services",
    "category": "hygiene",
    "address": "330 Ellis St, San Francisco, CA 94102",
    "latitude": 37.7850,
    "longitude": -122.4124,
    "hours": "Daily 7:00 AM - 1:00 PM",
    "description": "Free showers, toiletries, and clothing. Walk-in basis, first come first served."
  },
  {
    "id": "19",
    "name": "St. Vincent de Paul Clothing Center",
    "category": "clothing",
    "address": "525 5th St, San Francisco, CA 94107",
    "latitude": 37.7766,
    "longitude": -122.4031,
    "hours": "Mon-Fri 9:00 AM - 5:00 PM",
    "description": "Free clothing for men, women, and children. Seasonal items available."
  },
  {
    "id": "20",
    "name": "Episcopal Community Services Clothing",
    "category": "clothing",
    "address": "165 8th St, San Francisco, CA 94103",
    "latitude": 37.7759,
    "longitude": -122.4094,
    "hours": "Mon-Fri 10:00 AM - 3:00 PM",
    "description": "Free clothing closet. Bring ID if possible but not required."
  },
  {
    "id": "21",
    "name": "Goodwill Free Clothing Program",
    "category": "clothing",
    "address": "1580 Mission St, San Francisco, CA 94103",
    "latitude": 37.7730,
    "longitude": -122.4194,
    "hours": "Tue-Sat 10:00 AM - 4:00 PM",
    "description": "Free vouchers for clothing. Job interview outfits available."
  },
  {
    "id": "22",
    "name": "SF Free Clinic",
    "category": "medical",
    "address": "4900 California St, San Francisco, CA 94118",
    "latitude": 37.7844,
    "longitude": -122.4628,
    "hours": "Mon-Fri 10:00 AM - 4:00 PM (appointment recommended)",
    "description": "Free medical care including primary care, dental, mental health. No insurance required."
  },
  {
    "id": "23",
    "name": "Tom Waddell Urban Health Clinic",
    "category": "medical",
    "address": "230 Golden Gate Ave, San Francisco, CA 94102",
    "latitude": 37.7816,
    "longitude": -122.4153,
    "hours": "Mon-Fri 8:00 AM - 5:00 PM",
    "description": "Primary care, HIV/AIDS services, mental health. Sliding scale fees, no one turned away."
  },
  {
    "id": "24",
    "name": "HealthRIGHT 360 Mission Clinic",
    "category": "medical",
    "address": "1563 Mission St, San Francisco, CA 94103",
    "latitude": 37.7728,
    "longitude": -122.4192,
    "hours": "Mon-Fri 9:00 AM - 5:00 PM",
    "description": "Medical services, substance abuse treatment, behavioral health. Walk-ins welcome."
  },
  {
    "id": "25",
    "name": "SF Suicide Prevention Crisis Line",
    "category": "mental_health_safety",
    "address": "PO Box 191350, San Francisco, CA 94119",
    "latitude": 37.7749,
    "longitude": -122.4194,
    "hours": "24/7",
    "description": "24/7 crisis hotline for suicide prevention and mental health support. Call anytime."
  },
  {
    "id": "26",
    "name": "988 Suicide & Crisis Lifeline",
    "category": "mental_health_safety",
    "address": "National Hotline - Available Citywide",
    "latitude": 37.7749,
    "longitude": -122.4194,
    "hours": "24/7",
    "description": "National suicide prevention and crisis support. Call 988 or text anytime."
  },
  {
    "id": "27",
    "name": "NAMI San Francisco",
    "category": "mental_health_safety",
    "address": "870 Market St #928, San Francisco, CA 94102",
    "latitude": 37.7844,
    "longitude": -122.4078,
    "hours": "Hours vary by hotline/team",
    "description": "Mental health resources, support groups, crisis intervention, and education programs."
  },
  {
    "id": "28",
    "name": "California DMV - San Francisco",
    "category": "lost_id_docs",
    "address": "1377 Fell St, San Francisco, CA 94117",
    "latitude": 37.7733,
    "longitude": -122.4394,
    "hours": "Mon/Tue/Thu/Fri 8:00 AM - 5:00 PM; Wed 9:00 AM - 5:00 PM",
    "description": "State ID cards and driver's licenses. Bring required documents for identification."
  },
  {
    "id": "29",
    "name": "Homeless ID Project",
    "category": "lost_id_docs",
    "address": "San Francisco (call for appointment location)",
    "latitude": 37.7749,
    "longitude": -122.4194,
    "hours": "By appointment only",
    "description": "Free help obtaining government-issued ID for those experiencing homelessness."
  },
  {
    "id": "30",
    "name": "Clinic by the Bay",
    "category": "medical",
    "address": "2940 16th St, San Francisco, CA 94103",
    "latitude": 37.7652,
    "longitude": -122.4111,
    "hours": "Mon 10:00 AM - 5:00 PM; Tue 12:00 PM - 8:00 PM; Thu 10:00 AM - 6:00 PM",
    "description": "Free medical, dental, and behavioral health services. No insurance required."
  },
  {
    "id": "31",
    "name": "City Clinic SF",
    "category": "medical",
    "address": "356 7th St, San Francisco, CA 94103",
    "latitude": 37.7753,
    "longitude": -122.4064,
    "hours": "Mon/Wed/Fri 8:00 AM - 4:00 PM; Tue 1:00 PM - 6:00 PM; Thu 8:00 AM - 11:00 AM & 1:00 PM - 4:00 PM",
    "description": "Sexual health services including HIV/STI testing and treatment. Free and confidential."
  }
]
